[
  {
    "name": "Delfino Blu Hotel in Agios Stefanos Avliotes, Corfu",
    "official_website": "https://corfudelfinoblu.reserve-online.net/",
    "address": "Corfu, Agios Stefanos Avliotes",
    "star_rating": "4",
    "review_score": "5.0",
    "number_of_reviews": "1",
    "phone_number": "00302118503006",
    "latitude": "39.75687374887841",
    "longitude": "19.644466638565063",
    "detail_url": "https://www.greeka.com/ionian/corfu/hotels/location-agios-stefanos-avliotes/delfino-blu/"
  },
  {
    "name": "Oceanis Apartments in Barbati, Corfu",
    "official_website": "https://oceanisrooms.reserve-online.net/",
    "address": "Corfu, Barbati",
    "star_rating": "",
    "review_score": "5.0",
    "number_of_reviews": "15",
    "phone_number": "00302118503006",
    "latitude": "39.72266511339484",
    "longitude": "19.881632924079895",
    "detail_url": "https://www.greeka.com/ionian/corfu/hotels/location-barbati/oceanis/"
  },
  {
    "name": "Fedra Mare Apartments in Agios Stefanos Avliotes, Corfu",
    "official_website": "https://fedramare.reserve-online.net/",
    "address": "Corfu, Agios Stefanos Avliotes",
    "star_rating": "",
    "review_score": "5.0",
    "number_of_reviews": "40",
    "phone_number": "00302118503006",
    "latitude": "39.75358454392243",
    "longitude": "19.638726346254458",
    "detail_url": "https://www.greeka.com/ionian/corfu/hotels/location-agios-stefanos-avliotes/fedra-mare/"
  },
  {
    "name": "Spiti Nikos Apartments in Danilia, Corfu",
    "official_website": "http://www.corfuspitinikos.com",
    "address": "Corfu, Danilia",
    "star_rating": "",
    "review_score": "5.0",
    "number_of_reviews": "1",
    "phone_number": "00302118503006",
    "latitude": "39.638282",
    "longitude": "19.837331",
    "detail_url": "https://www.greeka.com/ionian/corfu/hotels/location-danilia/spiti-nikos/"
  },
  {
    "name": "Stevens on the Hill Apartments in Agios Gordios, Corfu",
    "official_website": "http://www.stevens.gr",
    "address": "Corfu, Agios Gordios",
    "star_rating": "",
    "review_score": "5.0",
    "number_of_reviews": "1",
    "phone_number": "00302118503006",
    "latitude": "39.545129576886474",
    "longitude": "19.85351800918579",
    "detail_url": "https://www.greeka.com/ionian/corfu/hotels/location-agios-gordios/stevens-on-the-hill/"
  },
  {
    "name": "Siora Vittoria Boutique Hotel in Town, Corfu",
    "official_website": "",
    "address": "Corfu, Town",
    "star_rating": "4",
    "review_score": "",
    "number_of_reviews": "",
    "phone_number": "00302118503006",
    "latitude": "39.622526",
    "longitude": "19.921493",
    "detail_url": "https://www.greeka.com/ionian/corfu/hotels/location-town/siora-vittoria/"
  },
  {
    "name": "Kairaba Mythos Palace Hotel in Kouspades, Corfu",
    "official_website": "",
    "address": "Corfu, Kouspades",
    "star_rating": "",
    "review_score": "",
    "number_of_reviews": "",
    "phone_number": "00302118503006",
    "latitude": "39.460710",
    "longitude": "19.966194",
    "detail_url": "https://www.greeka.com/ionian/corfu/hotels/location-kouspades/kairaba/"
  },
  {
    "name": "Porta Spilea Apartments in Town, Corfu",
    "official_website": "",
    "address": "Corfu, Town",
    "star_rating": "",
    "review_score": "",
    "number_of_reviews": "",
    "phone_number": "00302118503006",
    "latitude": "39.625811",
    "longitude": "19.919514",
    "detail_url": "https://www.greeka.com/ionian/corfu/hotels/location-town/porta-spilea/"
  },
  {
    "name": "Dreams Resort & Spa Hotel in Gouvia, Corfu",
    "official_website": "",
    "address": "Corfu, Gouvia",
    "star_rating": "4",
    "review_score": "",
    "number_of_reviews": "",
    "phone_number": "00302118503006",
    "latitude": "39.65078121740967",
    "longitude": "19.84296016395092",
    "detail_url": "https://www.greeka.com/ionian/corfu/hotels/location-gouvia/dreams/"
  },
  {
    "name": "Grecotel Eva Palace Hotel in Kommeno, Corfu",
    "official_website": "",
    "address": "Corfu, Kommeno",
    "star_rating": "",
    "review_score": "",
    "number_of_reviews": "",
    "phone_number": "00302118503006",
    "latitude": "39.667094996809794",
    "longitude": "19.856158643960953",
    "detail_url": "https://www.greeka.com/ionian/corfu/hotels/location-kommeno/grecotel-eva-palace/"
  },
  {
    "name": "Grecotel Daphnila Bay Hotel in Dassia, Corfu",
    "official_website": "",
    "address": "Corfu, Dassia",
    "star_rating": "4",
    "review_score": "",
    "number_of_reviews": "",
    "phone_number": "00302118503006",
    "latitude": "39.666129",
    "longitude": "19.84919",
    "detail_url": "https://www.greeka.com/ionian/corfu/hotels/location-dassia/grecotel-daphnila-bay/"
  },
  {
    "name": "Grecotel Imperial Hotel in Kommeno, Corfu",
    "official_website": "",
    "address": "Corfu, Kommeno",
    "star_rating": "",
    "review_score": "",
    "number_of_reviews": "",
    "phone_number": "00302118503006",
    "latitude": "39.666361104522814",
    "longitude": "19.860763996839523",
    "detail_url": "https://www.greeka.com/ionian/corfu/hotels/location-kommeno/grecotel-imperial/"
  },
  {
    "name": "Ikos Dassia Hotel in Dassia, Corfu",
    "official_website": "",
    "address": "Corfu, Dassia",
    "star_rating": "4",
    "review_score": "",
    "number_of_reviews": "",
    "phone_number": "00302118503006",
    "latitude": "39.67798064916928",
    "longitude": "19.839677810668945",
    "detail_url": "https://www.greeka.com/ionian/corfu/hotels/location-dassia/ikos-dassia/"
  },
  {
    "name": "Aeolos Beach Hotel in Perama, Corfu",
    "official_website": "",
    "address": "Corfu, Perama",
    "star_rating": "4",
    "review_score": "",
    "number_of_reviews": "",
    "phone_number": "00302118503006",
    "latitude": "39.567422",
    "longitude": "19.908127",
    "detail_url": "https://www.greeka.com/ionian/corfu/hotels/location-perama/aeolos-beach/"
  },
  {
    "name": "Akrotiri Beach Hotel in Paleokastritsa, Corfu",
    "official_website": "",
    "address": "Corfu, Paleokastritsa",
    "star_rating": "4",
    "review_score": "",
    "number_of_reviews": "",
    "phone_number": "00302118503006",
    "latitude": "39.672973905998255",
    "longitude": "19.716519489884377",
    "detail_url": "https://www.greeka.com/ionian/corfu/hotels/location-paleokastritsa/akrotiri-beach/"
  },
  {
    "name": "Divani Palace Hotel in Town, Corfu",
    "official_website": "",
    "address": "Corfu, Town",
    "star_rating": "4",
    "review_score": "",
    "number_of_reviews": "",
    "phone_number": "00302118503006",
    "latitude": "39.59846835359944",
    "longitude": "19.922293201088905",
    "detail_url": "https://www.greeka.com/ionian/corfu/hotels/location-town/divani-palace/"
  },
  {
    "name": "Angsana Resort & Spa Hotel in Benitses, Corfu",
    "official_website": "",
    "address": "Corfu, Benitses",
    "star_rating": "",
    "review_score": "",
    "number_of_reviews": "",
    "phone_number": "00302118503006",
    "latitude": "39.553416",
    "longitude": "19.909083",
    "detail_url": "https://www.greeka.com/ionian/corfu/hotels/location-benitses/angsana/"
  },
  {
    "name": "Acanthus Blue Hotel in Town, Corfu",
    "official_website": "",
    "address": "Corfu, Town",
    "star_rating": "",
    "review_score": "",
    "number_of_reviews": "",
    "phone_number": "00302118503006",
    "latitude": "39.612799",
    "longitude": "19.919928",
    "detail_url": "https://www.greeka.com/ionian/corfu/hotels/location-town/acanthus-blue/"
  },
  {
    "name": "Mayor Pelekas Monastery Hotel in Pelekas, Corfu",
    "official_website": "",
    "address": "Corfu, Pelekas",
    "star_rating": "",
    "review_score": "",
    "number_of_reviews": "",
    "phone_number": "00302118503006",
    "latitude": "39.583221",
    "longitude": "19.820893",
    "detail_url": "https://www.greeka.com/ionian/corfu/hotels/location-pelekas/mayor-pelekas-monastery/"
  },
  {
    "name": "Holiday Palace Hotel in Kanoni Kassiopi, Corfu",
    "official_website": "",
    "address": "Corfu, Kanoni Kassiopi",
    "star_rating": "",
    "review_score": "",
    "number_of_reviews": "",
    "phone_number": "00302118503006",
    "latitude": "39.591575488537345",
    "longitude": "19.9185997992754",
    "detail_url": "https://www.greeka.com/ionian/corfu/hotels/location-kanoni-kassiopi/holiday-palace/"
  },
  {
    "name": "Corfu Palace Hotel in Town, Corfu",
    "official_website": "",
    "address": "Corfu, Town",
    "star_rating": "",
    "review_score": "",
    "number_of_reviews": "",
    "phone_number": "00302118503006",
    "latitude": "39.61926483668208",
    "longitude": "19.92288865149021",
    "detail_url": "https://www.greeka.com/ionian/corfu/hotels/location-town/corfu-palace/"
  },
  {
    "name": "Elea Hotel in Dassia, Corfu",
    "official_website": "",
    "address": "Corfu, Dassia",
    "star_rating": "4",
    "review_score": "",
    "number_of_reviews": "",
    "phone_number": "00302118503006",
    "latitude": "39.68406979655199",
    "longitude": "19.84098806977272",
    "detail_url": "https://www.greeka.com/ionian/corfu/hotels/location-dassia/elea/"
  },
  {
    "name": "Paleo ArtNouveau Hotel in Paleokastritsa, Corfu",
    "official_website": "",
    "address": "Corfu, Paleokastritsa",
    "star_rating": "4",
    "review_score": "",
    "number_of_reviews": "",
    "phone_number": "00302118503006",
    "latitude": "39.67430972673714",
    "longitude": "19.71818581223488",
    "detail_url": "https://www.greeka.com/ionian/corfu/hotels/location-paleokastritsa/paleo-artnouveau/"
  },
  {
    "name": "Delfinia Hotel in Moraitika, Corfu",
    "official_website": "",
    "address": "Corfu, Moraitika",
    "star_rating": "4",
    "review_score": "",
    "number_of_reviews": "",
    "phone_number": "00302118503006",
    "latitude": "39.486517",
    "longitude": "19.927822",
    "detail_url": "https://www.greeka.com/ionian/corfu/hotels/location-moraitika/delfinia/"
  },
  {
    "name": "Dassia Beach Hotel in Dassia, Corfu",
    "official_website": "",
    "address": "Corfu, Dassia",
    "star_rating": "2",
    "review_score": "",
    "number_of_reviews": "",
    "phone_number": "00302118503006",
    "latitude": "39.68218508342815",
    "longitude": "19.841159731149673",
    "detail_url": "https://www.greeka.com/ionian/corfu/hotels/location-dassia/dassia/"
  },
  {
    "name": "Olivar Suites Hotel in Messonghi, Corfu",
    "official_website": "",
    "address": "Corfu, Messonghi",
    "star_rating": "",
    "review_score": "",
    "number_of_reviews": "",
    "phone_number": "00302118503006",
    "latitude": "39.47560492309906",
    "longitude": "19.932223581996293",
    "detail_url": "https://www.greeka.com/ionian/corfu/hotels/location-messonghi/olivar/"
  },
  {
    "name": "Kontokali Bay Hotel in Kontokali, Corfu",
    "official_website": "",
    "address": "Corfu, Kontokali",
    "star_rating": "",
    "review_score": "",
    "number_of_reviews": "",
    "phone_number": "00302118503006",
    "latitude": "39.64928912216484",
    "longitude": "19.86073113977909",
    "detail_url": "https://www.greeka.com/ionian/corfu/hotels/location-kontokali/kontokali-bay/"
  },
  {
    "name": "Rodostamo Hotel in Kommeno, Corfu",
    "official_website": "",
    "address": "Corfu, Kommeno",
    "star_rating": "",
    "review_score": "",
    "number_of_reviews": "",
    "phone_number": "00302118503006",
    "latitude": "39.66442671541247",
    "longitude": "19.845975637435913",
    "detail_url": "https://www.greeka.com/ionian/corfu/hotels/location-kommeno/rodostamo/"
  },
  {
    "name": "Marbella Hotel in Agios Ioannis Peristeron, Corfu",
    "official_website": "",
    "address": "Corfu, Agios Ioannis Peristeron",
    "star_rating": "",
    "review_score": "",
    "number_of_reviews": "",
    "phone_number": "00302118503006",
    "latitude": "39.50759918521683",
    "longitude": "19.922350198030472",
    "detail_url": "https://www.greeka.com/ionian/corfu/hotels/location-agios-ioannis-peristeron/marbella/"
  },
  {
    "name": "Atlantica Grand Mediterraneo Hotel in Ermones, Corfu",
    "official_website": "",
    "address": "Corfu, Ermones",
    "star_rating": "",
    "review_score": "",
    "number_of_reviews": "",
    "phone_number": "00302118503006",
    "latitude": "39.61269715976721",
    "longitude": "19.778810776770115",
    "detail_url": "https://www.greeka.com/ionian/corfu/hotels/location-ermones/grand-mediterraneo/"
  },
  {
    "name": "Mareblue Beach Hotel in Agios Spiridon, Corfu",
    "official_website": "",
    "address": "Corfu, Agios Spiridon",
    "star_rating": "4",
    "review_score": "",
    "number_of_reviews": "",
    "phone_number": "00302118503006",
    "latitude": "39.813002",
    "longitude": "19.86463",
    "detail_url": "https://www.greeka.com/ionian/corfu/hotels/location-agios-spiridon/mareblue-beach/"
  },
  {
    "name": "Mayor Capo Di Corfu Hotel in Lefkimi, Corfu",
    "official_website": "",
    "address": "Corfu, Lefkimi",
    "star_rating": "4",
    "review_score": "",
    "number_of_reviews": "",
    "phone_number": "00302118503006",
    "latitude": "39.42309",
    "longitude": "20.071861",
    "detail_url": "https://www.greeka.com/ionian/corfu/hotels/location-lefkimi/mayor-capo-di-corfu/"
  },
  {
    "name": "Kerkyra Blue Hotel in Alykes, Corfu",
    "official_website": "",
    "address": "Corfu, Alykes",
    "star_rating": "",
    "review_score": "",
    "number_of_reviews": "",
    "phone_number": "00302118503006",
    "latitude": "39.63463390001306",
    "longitude": "19.885968044400215",
    "detail_url": "https://www.greeka.com/ionian/corfu/hotels/location-alykes/kerkyra-blue/"
  },
  {
    "name": "Mega Lithari Villas in Arillas, Corfu",
    "official_website": "",
    "address": "Corfu, Arillas",
    "star_rating": "",
    "review_score": "",
    "number_of_reviews": "",
    "phone_number": "00302118503006",
    "latitude": "39.742065499457865",
    "longitude": "19.67060626533558",
    "detail_url": "https://www.greeka.com/ionian/corfu/hotels/location-arillas/mega-lithari/"
  },
  {
    "name": "Palms & Spas Suites in Messonghi, Corfu",
    "official_website": "",
    "address": "Corfu, Messonghi",
    "star_rating": "",
    "review_score": "",
    "number_of_reviews": "",
    "phone_number": "00302118503006",
    "latitude": "39.47127116108039",
    "longitude": "19.937642142176628",
    "detail_url": "https://www.greeka.com/ionian/corfu/hotels/location-messonghi/palms-and-spas/"
  },
  {
    "name": "Sunshine Hotel in Nissaki, Corfu",
    "official_website": "",
    "address": "Corfu, Nissaki",
    "star_rating": "4",
    "review_score": "",
    "number_of_reviews": "",
    "phone_number": "00302118503006",
    "latitude": "39.72586270864284",
    "longitude": "19.904194995760918",
    "detail_url": "https://www.greeka.com/ionian/corfu/hotels/location-nissaki/sunshine/"
  },
  {
    "name": "Villa The Editor's Villas in Viros, Corfu",
    "official_website": "",
    "address": "Corfu, Viros",
    "star_rating": "",
    "review_score": "",
    "number_of_reviews": "",
    "phone_number": "00302118503006",
    "latitude": "39.59336785444335",
    "longitude": "19.88954644650221",
    "detail_url": "https://www.greeka.com/ionian/corfu/hotels/location-viros/the-editors-villa/"
  },
  {
    "name": "LOC Hospitality Suites in Town, Corfu",
    "official_website": "",
    "address": "Corfu, Town",
    "star_rating": "",
    "review_score": "",
    "number_of_reviews": "",
    "phone_number": "00302118503006",
    "latitude": "39.62421452495007",
    "longitude": "19.92103088647127",
    "detail_url": "https://www.greeka.com/ionian/corfu/hotels/location-town/loc/"
  },
  {
    "name": "Domes Miramare Hotel in Moraitika, Corfu",
    "official_website": "",
    "address": "Corfu, Moraitika",
    "star_rating": "",
    "review_score": "",
    "number_of_reviews": "",
    "phone_number": "00302118503006",
    "latitude": "39.489513283514206",
    "longitude": "19.92741221538852",
    "detail_url": "https://www.greeka.com/ionian/corfu/hotels/location-moraitika/miramare-beach-and-spa/"
  },
  {
    "name": "Mitsis Roda Beach Hotel in Roda, Corfu",
    "official_website": "",
    "address": "Corfu, Roda",
    "star_rating": "4",
    "review_score": "",
    "number_of_reviews": "",
    "phone_number": "00302118503006",
    "latitude": "39.795934",
    "longitude": "19.779752",
    "detail_url": "https://www.greeka.com/ionian/corfu/hotels/location-roda/mitsis-roda-beach/"
  },
  {
    "name": "Acharavi Beach Hotel in Acharavi, Corfu",
    "official_website": "",
    "address": "Corfu, Acharavi",
    "star_rating": "4",
    "review_score": "",
    "number_of_reviews": "",
    "phone_number": "00302118503006",
    "latitude": "39.79656",
    "longitude": "19.817596",
    "detail_url": "https://www.greeka.com/ionian/corfu/hotels/location-acharavi/acharavi-beach/"
  },
  {
    "name": "Aquamarine Apartments in Nissaki, Corfu",
    "official_website": "",
    "address": "Corfu, Nissaki",
    "star_rating": "",
    "review_score": "",
    "number_of_reviews": "",
    "phone_number": "00302118503006",
    "latitude": "39.723998838083695",
    "longitude": "19.89110179245472",
    "detail_url": "https://www.greeka.com/ionian/corfu/hotels/location-nissaki/aquamarine/"
  },
  {
    "name": "Aqualand Hotel in Agios Ioannis Afra, Corfu",
    "official_website": "",
    "address": "Corfu, Agios Ioannis Afra",
    "star_rating": "4",
    "review_score": "",
    "number_of_reviews": "",
    "phone_number": "00302118503006",
    "latitude": "39.617760955923266",
    "longitude": "19.83819756656885",
    "detail_url": "https://www.greeka.com/ionian/corfu/hotels/location-agios-ioannis-afra/aqualand/"
  },
  {
    "name": "Labranda Sandy Beach Hotel in Agios Georgios Argyradon, Corfu",
    "official_website": "",
    "address": "Corfu, Agios Georgios Argyradon",
    "star_rating": "4",
    "review_score": "",
    "number_of_reviews": "",
    "phone_number": "00302118503006",
    "latitude": "39.43109926848816",
    "longitude": "19.940709248185158",
    "detail_url": "https://www.greeka.com/ionian/corfu/hotels/location-agios-georgios-argyradon/labranda-sandy-beach/"
  },
  {
    "name": "Restia Hotel in Acharavi, Corfu",
    "official_website": "",
    "address": "Corfu, Acharavi",
    "star_rating": "",
    "review_score": "",
    "number_of_reviews": "",
    "phone_number": "00302118503006",
    "latitude": "",
    "longitude": "",
    "detail_url": "https://www.greeka.com/ionian/corfu/hotels/location-acharavi/restia/"
  },
  {
    "name": "Ariti Hotel in Town, Corfu",
    "official_website": "",
    "address": "Corfu, Town",
    "star_rating": "4",
    "review_score": "",
    "number_of_reviews": "",
    "phone_number": "00302118503006",
    "latitude": "39.59331272052179",
    "longitude": "19.91820015013218",
    "detail_url": "https://www.greeka.com/ionian/corfu/hotels/location-town/ariti/"
  },
  {
    "name": "Albatros Hotel in Moraitika, Corfu",
    "official_website": "",
    "address": "Corfu, Moraitika",
    "star_rating": "3",
    "review_score": "",
    "number_of_reviews": "",
    "phone_number": "00302118503006",
    "latitude": "39.48337174304366",
    "longitude": "19.92955058813095",
    "detail_url": "https://www.greeka.com/ionian/corfu/hotels/location-moraitika/albatros/"
  },
  {
    "name": "Saint Nicholas Hotel in Gouvia, Corfu",
    "official_website": "",
    "address": "Corfu, Gouvia",
    "star_rating": "3",
    "review_score": "",
    "number_of_reviews": "",
    "phone_number": "00302118503006",
    "latitude": "39.65699180820766",
    "longitude": "19.835500940680504",
    "detail_url": "https://www.greeka.com/ionian/corfu/hotels/location-gouvia/saint-nicholas/"
  },
  {
    "name": "Messonghi Beach Hotel in Messonghi, Corfu",
    "official_website": "",
    "address": "Corfu, Messonghi",
    "star_rating": "3",
    "review_score": "",
    "number_of_reviews": "",
    "phone_number": "00302118503006",
    "latitude": "39.48108315073304",
    "longitude": "19.93152067065239",
    "detail_url": "https://www.greeka.com/ionian/corfu/hotels/location-messonghi/messonghi-beach/"
  },
  {
    "name": "Archontiko Petrettini Boutique Hotel in Agios Ioannis Afra, Corfu",
    "official_website": "",
    "address": "Corfu, Agios Ioannis Afra",
    "star_rating": "3",
    "review_score": "",
    "number_of_reviews": "",
    "phone_number": "00302118503006",
    "latitude": "39.616192",
    "longitude": "19.848242",
    "detail_url": "https://www.greeka.com/ionian/corfu/hotels/location-agios-ioannis-afra/archontiko-petrettini/"
  },
  {
    "name": "Bella Vista Hotel in Benitses, Corfu",
    "official_website": "",
    "address": "Corfu, Benitses",
    "star_rating": "4",
    "review_score": "",
    "number_of_reviews": "",
    "phone_number": "00302118503006",
    "latitude": "39.54177613846055",
    "longitude": "19.91374634206295",
    "detail_url": "https://www.greeka.com/ionian/corfu/hotels/location-benitses/bella-vista/"
  },
  {
    "name": "Alexandros & Gerekos Apartments in Kontokali, Corfu",
    "official_website": "",
    "address": "Corfu, Kontokali",
    "star_rating": "",
    "review_score": "",
    "number_of_reviews": "",
    "phone_number": "00302118503006",
    "latitude": "39.65101664516137",
    "longitude": "19.85777735710144",
    "detail_url": "https://www.greeka.com/ionian/corfu/hotels/location-kontokali/alexandros-and-gerekos/"
  },
  {
    "name": "Angelina Hotel in Sidari, Corfu",
    "official_website": "",
    "address": "Corfu, Sidari",
    "star_rating": "3",
    "review_score": "",
    "number_of_reviews": "",
    "phone_number": "00302118503006",
    "latitude": "39.79438347501337",
    "longitude": "19.699543118476868",
    "detail_url": "https://www.greeka.com/ionian/corfu/hotels/location-sidari/angelina/"
  },
  {
    "name": "Cavalieri Hotel in Town, Corfu",
    "official_website": "",
    "address": "Corfu, Town",
    "star_rating": "4",
    "review_score": "",
    "number_of_reviews": "",
    "phone_number": "00302118503006",
    "latitude": "39.62115426170691",
    "longitude": "19.923641346395016",
    "detail_url": "https://www.greeka.com/ionian/corfu/hotels/location-town/cavalieri/"
  },
  {
    "name": "Barbati Beach Apartments in Barbati, Corfu",
    "official_website": "",
    "address": "Corfu, Barbati",
    "star_rating": "",
    "review_score": "",
    "number_of_reviews": "",
    "phone_number": "00302118503006",
    "latitude": "39.716877707880755",
    "longitude": "19.867757856845856",
    "detail_url": "https://www.greeka.com/ionian/corfu/hotels/location-barbati/barbati/"
  },
  {
    "name": "Bella Venezia Hotel in Town, Corfu",
    "official_website": "",
    "address": "Corfu, Town",
    "star_rating": "3",
    "review_score": "5.0",
    "number_of_reviews": "9",
    "phone_number": "00302118503006",
    "latitude": "39.6211134572828",
    "longitude": "19.922309294342995",
    "detail_url": "https://www.greeka.com/ionian/corfu/hotels/location-town/bella-venezia/"
  },
  {
    "name": "Aquarius Hotel in Moraitika, Corfu",
    "official_website": "",
    "address": "Corfu, Moraitika",
    "star_rating": "3",
    "review_score": "",
    "number_of_reviews": "",
    "phone_number": "00302118503006",
    "latitude": "39.47502645378512",
    "longitude": "19.934410750865936",
    "detail_url": "https://www.greeka.com/ionian/corfu/hotels/location-moraitika/aquarius/"
  },
  {
    "name": "Corfu Mare Hotel in Town, Corfu",
    "official_website": "",
    "address": "Corfu, Town",
    "star_rating": "3",
    "review_score": "",
    "number_of_reviews": "",
    "phone_number": "00302118503006",
    "latitude": "39.62818",
    "longitude": "19.89704",
    "detail_url": "https://www.greeka.com/ionian/corfu/hotels/location-town/corfu-mare/"
  },
  {
    "name": "Apraos Bay Hotel in Kasiopi, Corfu",
    "official_website": "",
    "address": "Corfu, Kasiopi",
    "star_rating": "3",
    "review_score": "3.0",
    "number_of_reviews": "1",
    "phone_number": "00302118503006",
    "latitude": "39.79677156426121",
    "longitude": "19.890435934066772",
    "detail_url": "https://www.greeka.com/ionian/corfu/hotels/location-kasiopi/apraos-bay/"
  },
  {
    "name": "Benitses Arches Hotel in Benitses, Corfu",
    "official_website": "",
    "address": "Corfu, Benitses",
    "star_rating": "2",
    "review_score": "",
    "number_of_reviews": "",
    "phone_number": "00302118503006",
    "latitude": "39.5423703912258",
    "longitude": "19.914071559906006",
    "detail_url": "https://www.greeka.com/ionian/corfu/hotels/location-benitses/benitses-arches/"
  },
  {
    "name": "Blue Dream Apartments in Velonades, Corfu",
    "official_website": "",
    "address": "Corfu, Velonades",
    "star_rating": "",
    "review_score": "",
    "number_of_reviews": "",
    "phone_number": "00302118503006",
    "latitude": "39.757331",
    "longitude": "19.719595",
    "detail_url": "https://www.greeka.com/ionian/corfu/hotels/location-velonades/blue-dream/"
  },
  {
    "name": "Century Hotel in Acharavi, Corfu",
    "official_website": "",
    "address": "Corfu, Acharavi",
    "star_rating": "4",
    "review_score": "",
    "number_of_reviews": "",
    "phone_number": "00302118503006",
    "latitude": "39.791715014883806",
    "longitude": "19.820865467190742",
    "detail_url": "https://www.greeka.com/ionian/corfu/hotels/location-acharavi/century-resort/"
  },
  {
    "name": "ABC Sweet Rooms Apartments in Sidari, Corfu",
    "official_website": "",
    "address": "Corfu, Sidari",
    "star_rating": "",
    "review_score": "",
    "number_of_reviews": "",
    "phone_number": "00302118503006",
    "latitude": "39.78643",
    "longitude": "19.72266",
    "detail_url": "https://www.greeka.com/ionian/corfu/hotels/location-sidari/abc-sweet-rooms/"
  },
  {
    "name": "Chrismos Suites in Acharavi, Corfu",
    "official_website": "",
    "address": "Corfu, Acharavi",
    "star_rating": "",
    "review_score": "",
    "number_of_reviews": "",
    "phone_number": "00302118503006",
    "latitude": "39.79766687025803",
    "longitude": "19.88534577190876",
    "detail_url": "https://www.greeka.com/ionian/corfu/hotels/location-acharavi/chrismos/"
  },
  {
    "name": "City Marina Hotel in Town, Corfu",
    "official_website": "",
    "address": "Corfu, Town",
    "star_rating": "3",
    "review_score": "",
    "number_of_reviews": "",
    "phone_number": "00302118503006",
    "latitude": "39.626748785323954",
    "longitude": "19.920673817396164",
    "detail_url": "https://www.greeka.com/ionian/corfu/hotels/location-town/city-marina/"
  },
  {
    "name": "The Pink Palace Beach Resort Rooms in Agios Gordios, Corfu",
    "official_website": "",
    "address": "Corfu, Agios Gordios",
    "star_rating": "",
    "review_score": "5.0",
    "number_of_reviews": "1",
    "phone_number": "00302118503006",
    "latitude": "39.549448967897995",
    "longitude": "19.84862533457015",
    "detail_url": "https://www.greeka.com/ionian/corfu/hotels/location-agios-gordios/pink-palace/"
  },
  {
    "name": "Debono Hotel in Gouvia, Corfu",
    "official_website": "",
    "address": "Corfu, Gouvia",
    "star_rating": "4",
    "review_score": "5.0",
    "number_of_reviews": "3",
    "phone_number": "00302118503006",
    "latitude": "39.64839488217711",
    "longitude": "19.843679666519165",
    "detail_url": "https://www.greeka.com/ionian/corfu/hotels/location-gouvia/debono/"
  },
  {
    "name": "Corfu Club Hotel in Gouvia, Corfu",
    "official_website": "",
    "address": "Corfu, Gouvia",
    "star_rating": "3",
    "review_score": "",
    "number_of_reviews": "",
    "phone_number": "00302118503006",
    "latitude": "39.66142589199939",
    "longitude": "19.839380085468292",
    "detail_url": "https://www.greeka.com/ionian/corfu/hotels/location-gouvia/club/"
  },
  {
    "name": "Luxury Villas in Barbati, Corfu",
    "official_website": "",
    "address": "Corfu, Barbati",
    "star_rating": "",
    "review_score": "",
    "number_of_reviews": "",
    "phone_number": "00302118503006",
    "latitude": "39.709460569360104",
    "longitude": "19.857495725154877",
    "detail_url": "https://www.greeka.com/ionian/corfu/hotels/location-barbati/luxury-villas/"
  },
  {
    "name": "Ibiscus Rooms in Roda, Corfu",
    "official_website": "",
    "address": "Corfu, Roda",
    "star_rating": "",
    "review_score": "",
    "number_of_reviews": "",
    "phone_number": "00302118503006",
    "latitude": "39.796584",
    "longitude": "19.774125",
    "detail_url": "https://www.greeka.com/ionian/corfu/hotels/location-roda/ibiscus/"
  },
  {
    "name": "Glyfa Villas in Barbati, Corfu",
    "official_website": "",
    "address": "Corfu, Barbati",
    "star_rating": "",
    "review_score": "",
    "number_of_reviews": "",
    "phone_number": "00302118503006",
    "latitude": "39.72422873256708",
    "longitude": "19.88397560849611",
    "detail_url": "https://www.greeka.com/ionian/corfu/hotels/location-barbati/glyfa/"
  },
  {
    "name": "Arion Hotel in Town, Corfu",
    "official_website": "",
    "address": "Corfu, Town",
    "star_rating": "3",
    "review_score": "",
    "number_of_reviews": "",
    "phone_number": "00302118503006",
    "latitude": "39.608672",
    "longitude": "19.924821",
    "detail_url": "https://www.greeka.com/ionian/corfu/hotels/location-town/arion/"
  },
  {
    "name": "Green Hill Apartments in Pelekas, Corfu",
    "official_website": "",
    "address": "Corfu, Pelekas",
    "star_rating": "",
    "review_score": "",
    "number_of_reviews": "",
    "phone_number": "00302118503006",
    "latitude": "39.587488",
    "longitude": "19.818541",
    "detail_url": "https://www.greeka.com/ionian/corfu/hotels/location-pelekas/green-hill/"
  },
  {
    "name": "Corfu Secret Hotel in Agios Markos, Corfu",
    "official_website": "",
    "address": "Corfu, Agios Markos",
    "star_rating": "3",
    "review_score": "",
    "number_of_reviews": "",
    "phone_number": "00302118503006",
    "latitude": "39.708292",
    "longitude": "19.838095",
    "detail_url": "https://www.greeka.com/ionian/corfu/hotels/location-agios-markos/secret/"
  },
  {
    "name": "Eleni Apartments in Sidari, Corfu",
    "official_website": "",
    "address": "Corfu, Sidari",
    "star_rating": "",
    "review_score": "",
    "number_of_reviews": "",
    "phone_number": "00302118503006",
    "latitude": "39.781053",
    "longitude": "19.709789",
    "detail_url": "https://www.greeka.com/ionian/corfu/hotels/location-sidari/eleni-apartments/"
  },
  {
    "name": "Dimitra Apartments in Benitses, Corfu",
    "official_website": "",
    "address": "Corfu, Benitses",
    "star_rating": "",
    "review_score": "",
    "number_of_reviews": "",
    "phone_number": "00302118503006",
    "latitude": "39.549969",
    "longitude": "19.911818",
    "detail_url": "https://www.greeka.com/ionian/corfu/hotels/location-benitses/dimitra/"
  },
  {
    "name": "Coral Beach Hotel in Roda, Corfu",
    "official_website": "",
    "address": "Corfu, Roda",
    "star_rating": "3",
    "review_score": "",
    "number_of_reviews": "",
    "phone_number": "00302118503006",
    "latitude": "39.789768424566155",
    "longitude": "19.793641716241837",
    "detail_url": "https://www.greeka.com/ionian/corfu/hotels/location-roda/coral/"
  },
  {
    "name": "Evgenios Studios in Kavos, Corfu",
    "official_website": "",
    "address": "Corfu, Kavos",
    "star_rating": "",
    "review_score": "",
    "number_of_reviews": "",
    "phone_number": "00302118503006",
    "latitude": "39.39172527340063",
    "longitude": "20.107461512088776",
    "detail_url": "https://www.greeka.com/ionian/corfu/hotels/location-kavos/evgenios/"
  },
  {
    "name": "Folies Hotel in Town, Corfu",
    "official_website": "",
    "address": "Corfu, Town",
    "star_rating": "3",
    "review_score": "",
    "number_of_reviews": "",
    "phone_number": "00302118503006",
    "latitude": "39.615969",
    "longitude": "19.898702",
    "detail_url": "https://www.greeka.com/ionian/corfu/hotels/location-town/folies/"
  },
  {
    "name": "Fouxia Apartments in Perama, Corfu",
    "official_website": "",
    "address": "Corfu, Perama",
    "star_rating": "",
    "review_score": "",
    "number_of_reviews": "",
    "phone_number": "00302118503006",
    "latitude": "39.57415511624823",
    "longitude": "19.91166230437293",
    "detail_url": "https://www.greeka.com/ionian/corfu/hotels/location-perama/fouxia/"
  },
  {
    "name": "Fundana Suites in Paleokastritsa, Corfu",
    "official_website": "",
    "address": "Corfu, Paleokastritsa",
    "star_rating": "",
    "review_score": "",
    "number_of_reviews": "",
    "phone_number": "00302118503006",
    "latitude": "39.65789",
    "longitude": "19.76211",
    "detail_url": "https://www.greeka.com/ionian/corfu/hotels/location-paleokastritsa/fundana-villas/"
  },
  {
    "name": "Golden Sunset Hotel in Boukari, Corfu",
    "official_website": "",
    "address": "Corfu, Boukari",
    "star_rating": "2",
    "review_score": "",
    "number_of_reviews": "",
    "phone_number": "00302118503006",
    "latitude": "39.459587824909335",
    "longitude": "19.979398101568222",
    "detail_url": "https://www.greeka.com/ionian/corfu/hotels/location-boukari/golden-sunset/"
  },
  {
    "name": "Island Beach Hotel in Kavos, Corfu",
    "official_website": "",
    "address": "Corfu, Kavos",
    "star_rating": "3",
    "review_score": "",
    "number_of_reviews": "",
    "phone_number": "00302118503006",
    "latitude": "39.38613242223974",
    "longitude": "20.11351928114891",
    "detail_url": "https://www.greeka.com/ionian/corfu/hotels/location-kavos/island-beach-resort/"
  },
  {
    "name": "Helion Apartments in Gouvia, Corfu",
    "official_website": "",
    "address": "Corfu, Gouvia",
    "star_rating": "",
    "review_score": "",
    "number_of_reviews": "",
    "phone_number": "00302118503006",
    "latitude": "39.657463",
    "longitude": "19.84133",
    "detail_url": "https://www.greeka.com/ionian/corfu/hotels/location-gouvia/helion/"
  },
  {
    "name": "Aegli Hotel in Perama, Corfu",
    "official_website": "",
    "address": "Corfu, Perama",
    "star_rating": "2",
    "review_score": "",
    "number_of_reviews": "",
    "phone_number": "00302118503006",
    "latitude": "39.58599569255351",
    "longitude": "19.914103746414185",
    "detail_url": "https://www.greeka.com/ionian/corfu/hotels/location-perama/aegli/"
  },
  {
    "name": "Hellinis Hotel in Kanoni Kassiopi, Corfu",
    "official_website": "",
    "address": "Corfu, Kanoni Kassiopi",
    "star_rating": "3",
    "review_score": "",
    "number_of_reviews": "",
    "phone_number": "00302118503006",
    "latitude": "39.593910975518305",
    "longitude": "19.916602224111557",
    "detail_url": "https://www.greeka.com/ionian/corfu/hotels/location-kanoni-kassiopi/hellinis/"
  },
  {
    "name": "Iliada Beach Hotel in Gouvia, Corfu",
    "official_website": "",
    "address": "Corfu, Gouvia",
    "star_rating": "3",
    "review_score": "",
    "number_of_reviews": "",
    "phone_number": "00302118503006",
    "latitude": "39.65432659573907",
    "longitude": "19.842231273651123",
    "detail_url": "https://www.greeka.com/ionian/corfu/hotels/location-gouvia/iliada-beach/"
  },
  {
    "name": "Aurora Hotel in Agios Ioannis Peristeron, Corfu",
    "official_website": "",
    "address": "Corfu, Agios Ioannis Peristeron",
    "star_rating": "2",
    "review_score": "",
    "number_of_reviews": "",
    "phone_number": "00302118503006",
    "latitude": "39.515983",
    "longitude": "19.92384",
    "detail_url": "https://www.greeka.com/ionian/corfu/hotels/location-agios-ioannis-peristeron/aurora/"
  },
  {
    "name": "Villa Infinity Villas in Agios Gordios, Corfu",
    "official_website": "",
    "address": "Corfu, Agios Gordios",
    "star_rating": "",
    "review_score": "",
    "number_of_reviews": "",
    "phone_number": "00302118503006",
    "latitude": "39.525870",
    "longitude": "19.868523",
    "detail_url": "https://www.greeka.com/ionian/corfu/hotels/location-agios-gordios/infinity-villa/"
  },
  {
    "name": "Ipsia Rooms in Paleokastritsa, Corfu",
    "official_website": "",
    "address": "Corfu, Paleokastritsa",
    "star_rating": "",
    "review_score": "",
    "number_of_reviews": "",
    "phone_number": "00302118503006",
    "latitude": "39.675817",
    "longitude": "19.704055",
    "detail_url": "https://www.greeka.com/ionian/corfu/hotels/location-paleokastritsa/ipsia/"
  },
  {
    "name": "Christakis Hotel in Sidari, Corfu",
    "official_website": "",
    "address": "Corfu, Sidari",
    "star_rating": "2",
    "review_score": "",
    "number_of_reviews": "",
    "phone_number": "00302118503006",
    "latitude": "39.791631",
    "longitude": "19.699784",
    "detail_url": "https://www.greeka.com/ionian/corfu/hotels/location-sidari/christakis/"
  },
  {
    "name": "Irene Apartments in Agios Gordios, Corfu",
    "official_website": "",
    "address": "Corfu, Agios Gordios",
    "star_rating": "",
    "review_score": "",
    "number_of_reviews": "",
    "phone_number": "00302118503006",
    "latitude": "39.56039205499584",
    "longitude": "19.840739965438843",
    "detail_url": "https://www.greeka.com/ionian/corfu/hotels/location-agios-gordios/irene/"
  },
  {
    "name": "Helios Splendid Apartments in Boukari, Corfu",
    "official_website": "",
    "address": "Corfu, Boukari",
    "star_rating": "",
    "review_score": "",
    "number_of_reviews": "",
    "phone_number": "00302118503006",
    "latitude": "39.458996",
    "longitude": "19.970311",
    "detail_url": "https://www.greeka.com/ionian/corfu/hotels/location-boukari/helios-splendid/"
  },
  {
    "name": "Kaiser Bridge Hotel in Benitses, Corfu",
    "official_website": "",
    "address": "Corfu, Benitses",
    "star_rating": "3",
    "review_score": "",
    "number_of_reviews": "",
    "phone_number": "00302118503006",
    "latitude": "39.562823",
    "longitude": "19.909629",
    "detail_url": "https://www.greeka.com/ionian/corfu/hotels/location-benitses/kaiser-bridge/"
  },
  {
    "name": "Amalia Complex Apartments in Nissaki, Corfu",
    "official_website": "",
    "address": "Corfu, Nissaki",
    "star_rating": "",
    "review_score": "5.0",
    "number_of_reviews": "3",
    "phone_number": "00302118503006",
    "latitude": "39.7271417052227",
    "longitude": "19.899088740348816",
    "detail_url": "https://www.greeka.com/ionian/corfu/hotels/location-nissaki/amalia-complex/"
  },
  {
    "name": "Katia Hotel in Kasiopi, Corfu",
    "official_website": "",
    "address": "Corfu, Kasiopi",
    "star_rating": "2",
    "review_score": "",
    "number_of_reviews": "",
    "phone_number": "00302118503006",
    "latitude": "39.781661626418334",
    "longitude": "19.928312527099095",
    "detail_url": "https://www.greeka.com/ionian/corfu/hotels/location-kasiopi/katia/"
  },
  {
    "name": "Lena Mare Hotel in Acharavi, Corfu",
    "official_website": "",
    "address": "Corfu, Acharavi",
    "star_rating": "4",
    "review_score": "",
    "number_of_reviews": "",
    "phone_number": "00302118503006",
    "latitude": "39.79300878265701",
    "longitude": "19.820356881771644",
    "detail_url": "https://www.greeka.com/ionian/corfu/hotels/location-acharavi/lena-mare/"
  },
  {
    "name": "Livadi Nafsika Hotel in Dassia, Corfu",
    "official_website": "",
    "address": "Corfu, Dassia",
    "star_rating": "3",
    "review_score": "",
    "number_of_reviews": "",
    "phone_number": "00302118503006",
    "latitude": "39.6778428537474",
    "longitude": "19.8382468521595",
    "detail_url": "https://www.greeka.com/ionian/corfu/hotels/location-dassia/livadi-nafsika/"
  },
  {
    "name": "Aronis Apartments in Benitses, Corfu",
    "official_website": "",
    "address": "Corfu, Benitses",
    "star_rating": "",
    "review_score": "",
    "number_of_reviews": "",
    "phone_number": "00302118503006",
    "latitude": "39.534182",
    "longitude": "19.915062",
    "detail_url": "https://www.greeka.com/ionian/corfu/hotels/location-benitses/aronis/"
  },
  {
    "name": "Egrypos Rooms in Petriti, Corfu",
    "official_website": "",
    "address": "Corfu, Petriti",
    "star_rating": "",
    "review_score": "",
    "number_of_reviews": "",
    "phone_number": "00302118503006",
    "latitude": "39.45303790034459",
    "longitude": "20.001272186636925",
    "detail_url": "https://www.greeka.com/ionian/corfu/hotels/location-petriti/egrypos/"
  },
  {
    "name": "Maria Apartments in Sidari, Corfu",
    "official_website": "",
    "address": "Corfu, Sidari",
    "star_rating": "",
    "review_score": "",
    "number_of_reviews": "",
    "phone_number": "00302118503006",
    "latitude": "39.79039352410162",
    "longitude": "19.6975314617157",
    "detail_url": "https://www.greeka.com/ionian/corfu/hotels/location-sidari/maria-apartments/"
  },
  {
    "name": "Louvre Hotel in Gouvia, Corfu",
    "official_website": "",
    "address": "Corfu, Gouvia",
    "star_rating": "3",
    "review_score": "",
    "number_of_reviews": "",
    "phone_number": "00302118503006",
    "latitude": "39.652514171912564",
    "longitude": "19.843209425841007",
    "detail_url": "https://www.greeka.com/ionian/corfu/hotels/location-gouvia/louvre/"
  },
  {
    "name": "Makis Apartments in Moraitika, Corfu",
    "official_website": "",
    "address": "Corfu, Moraitika",
    "star_rating": "",
    "review_score": "",
    "number_of_reviews": "",
    "phone_number": "00302118503006",
    "latitude": "39.47788415375905",
    "longitude": "19.925200653593037",
    "detail_url": "https://www.greeka.com/ionian/corfu/hotels/location-moraitika/makis/"
  },
  {
    "name": "Lofos Apartments in Agios Stefanos, Corfu",
    "official_website": "",
    "address": "Corfu, Agios Stefanos",
    "star_rating": "",
    "review_score": "",
    "number_of_reviews": "",
    "phone_number": "00302118503006",
    "latitude": "39.758928",
    "longitude": "19.647844",
    "detail_url": "https://www.greeka.com/ionian/corfu/hotels/location-agios-stefanos/lofos/"
  },
  {
    "name": "Marias Beach Apartments in Sidari, Corfu",
    "official_website": "",
    "address": "Corfu, Sidari",
    "star_rating": "",
    "review_score": "",
    "number_of_reviews": "",
    "phone_number": "00302118503006",
    "latitude": "39.79497700165496",
    "longitude": "19.701635241508484",
    "detail_url": "https://www.greeka.com/ionian/corfu/hotels/location-sidari/marias-beach/"
  },
  {
    "name": "Seafront Apartments in Kavos, Corfu",
    "official_website": "",
    "address": "Corfu, Kavos",
    "star_rating": "",
    "review_score": "",
    "number_of_reviews": "",
    "phone_number": "00302118503006",
    "latitude": "39.39164",
    "longitude": "20.107265",
    "detail_url": "https://www.greeka.com/ionian/corfu/hotels/location-kavos/seafront/"
  },
  {
    "name": "Marina Apartments in Agios Gordios, Corfu",
    "official_website": "",
    "address": "Corfu, Agios Gordios",
    "star_rating": "",
    "review_score": "",
    "number_of_reviews": "",
    "phone_number": "00302118503006",
    "latitude": "39.547057",
    "longitude": "19.855309",
    "detail_url": "https://www.greeka.com/ionian/corfu/hotels/location-agios-gordios/marina/"
  },
  {
    "name": "Royal Hotel in Kanoni Kassiopi, Corfu",
    "official_website": "",
    "address": "Corfu, Kanoni Kassiopi",
    "star_rating": "2",
    "review_score": "",
    "number_of_reviews": "",
    "phone_number": "00302118503006",
    "latitude": "39.59247252988253",
    "longitude": "19.917032048106194",
    "detail_url": "https://www.greeka.com/ionian/corfu/hotels/location-kanoni-kassiopi/royal/"
  },
  {
    "name": "Maltezos Hotel in Gouvia, Corfu",
    "official_website": "",
    "address": "Corfu, Gouvia",
    "star_rating": "3",
    "review_score": "",
    "number_of_reviews": "",
    "phone_number": "00302118503006",
    "latitude": "39.653423",
    "longitude": "19.843174",
    "detail_url": "https://www.greeka.com/ionian/corfu/hotels/location-gouvia/maltezos/"
  },
  {
    "name": "Ninos on The Beach Studios in Roda, Corfu",
    "official_website": "",
    "address": "Corfu, Roda",
    "star_rating": "",
    "review_score": "",
    "number_of_reviews": "",
    "phone_number": "00302118503006",
    "latitude": "39.790121",
    "longitude": "19.796247",
    "detail_url": "https://www.greeka.com/ionian/corfu/hotels/location-roda/ninos-on-the-beach/"
  },
  {
    "name": "Mediterranean Blue Hotel in Kavos, Corfu",
    "official_website": "",
    "address": "Corfu, Kavos",
    "star_rating": "3",
    "review_score": "",
    "number_of_reviews": "",
    "phone_number": "00302118503006",
    "latitude": "39.37664681962919",
    "longitude": "20.11788558214903",
    "detail_url": "https://www.greeka.com/ionian/corfu/hotels/location-kavos/mediterranean-blue/"
  },
  {
    "name": "Mimosa Hotel in Sidari, Corfu",
    "official_website": "",
    "address": "Corfu, Sidari",
    "star_rating": "2",
    "review_score": "",
    "number_of_reviews": "",
    "phone_number": "00302118503006",
    "latitude": "39.79220613637739",
    "longitude": "19.70579333603382",
    "detail_url": "https://www.greeka.com/ionian/corfu/hotels/location-sidari/mimosa/"
  },
  {
    "name": "Napoleon On The Beach Apartments in Paleokastritsa, Corfu",
    "official_website": "",
    "address": "Corfu, Paleokastritsa",
    "star_rating": "",
    "review_score": "",
    "number_of_reviews": "",
    "phone_number": "00302118503006",
    "latitude": "39.67344368099752",
    "longitude": "19.706624150276184",
    "detail_url": "https://www.greeka.com/ionian/corfu/hotels/location-paleokastritsa/molos-beach/"
  },
  {
    "name": "Nissaki Sea View Apartments in Nissaki, Corfu",
    "official_website": "",
    "address": "Corfu, Nissaki",
    "star_rating": "",
    "review_score": "",
    "number_of_reviews": "",
    "phone_number": "00302118503006",
    "latitude": "39.72464480335559",
    "longitude": "19.895528443157673",
    "detail_url": "https://www.greeka.com/ionian/corfu/hotels/location-nissaki/nissaki-sea-view/"
  },
  {
    "name": "Liberty's Studios in Acharavi, Corfu",
    "official_website": "",
    "address": "Corfu, Acharavi",
    "star_rating": "",
    "review_score": "5.0",
    "number_of_reviews": "1",
    "phone_number": "00302118503006",
    "latitude": "39.807349",
    "longitude": "19.83453",
    "detail_url": "https://www.greeka.com/ionian/corfu/hotels/location-acharavi/liberty/"
  },
  {
    "name": "Oasis Hotel in Perama, Corfu",
    "official_website": "",
    "address": "Corfu, Perama",
    "star_rating": "3",
    "review_score": "",
    "number_of_reviews": "",
    "phone_number": "00302118503006",
    "latitude": "39.58017616126724",
    "longitude": "19.913787245750427",
    "detail_url": "https://www.greeka.com/ionian/corfu/hotels/location-perama/oasis/"
  },
  {
    "name": "Panorama Hideaway Apartments in Dassia, Corfu",
    "official_website": "",
    "address": "Corfu, Dassia",
    "star_rating": "",
    "review_score": "5.0",
    "number_of_reviews": "7",
    "phone_number": "00302118503006",
    "latitude": "39.68251184915915",
    "longitude": "19.83452796936035",
    "detail_url": "https://www.greeka.com/ionian/corfu/hotels/location-dassia/panorama-hideaway/"
  },
  {
    "name": "Opera Blue Hotel in Gouvia, Corfu",
    "official_website": "",
    "address": "Corfu, Gouvia",
    "star_rating": "4",
    "review_score": "",
    "number_of_reviews": "",
    "phone_number": "00302118503006",
    "latitude": "39.653572",
    "longitude": "19.842462",
    "detail_url": "https://www.greeka.com/ionian/corfu/hotels/location-gouvia/opera-blue/"
  },
  {
    "name": "Paradise Hotel in Gouvia, Corfu",
    "official_website": "",
    "address": "Corfu, Gouvia",
    "star_rating": "3",
    "review_score": "",
    "number_of_reviews": "",
    "phone_number": "00302118503006",
    "latitude": "39.65612523564432",
    "longitude": "19.837118983268738",
    "detail_url": "https://www.greeka.com/ionian/corfu/hotels/location-gouvia/paradise/"
  },
  {
    "name": "Villa Pelekas Villas in Pelekas, Corfu",
    "official_website": "",
    "address": "Corfu, Pelekas",
    "star_rating": "",
    "review_score": "",
    "number_of_reviews": "",
    "phone_number": "00302118503006",
    "latitude": "39.597121",
    "longitude": "19.818813",
    "detail_url": "https://www.greeka.com/ionian/corfu/hotels/location-pelekas/villa-pelekas/"
  },
  {
    "name": "Olga Hotel in Agios Stefanos Avliotes, Corfu",
    "official_website": "",
    "address": "Corfu, Agios Stefanos Avliotes",
    "star_rating": "1",
    "review_score": "",
    "number_of_reviews": "",
    "phone_number": "00302118503006",
    "latitude": "39.75710661872119",
    "longitude": "19.64659753793446",
    "detail_url": "https://www.greeka.com/ionian/corfu/hotels/location-agios-stefanos-avliotes/olga/"
  },
  {
    "name": "Pegasus Hotel in Roda, Corfu",
    "official_website": "",
    "address": "Corfu, Roda",
    "star_rating": "3",
    "review_score": "",
    "number_of_reviews": "",
    "phone_number": "00302118503006",
    "latitude": "39.78632339499139",
    "longitude": "19.786921493946274",
    "detail_url": "https://www.greeka.com/ionian/corfu/hotels/location-roda/pegasus/"
  },
  {
    "name": "Prassino Nissi Rooms in Moraitika, Corfu",
    "official_website": "",
    "address": "Corfu, Moraitika",
    "star_rating": "",
    "review_score": "",
    "number_of_reviews": "",
    "phone_number": "00302118503006",
    "latitude": "39.489734586126204",
    "longitude": "19.926203191239438",
    "detail_url": "https://www.greeka.com/ionian/corfu/hotels/location-moraitika/prassino-nissi/"
  },
  {
    "name": "Telesilla Hotel in Kontokali, Corfu",
    "official_website": "",
    "address": "Corfu, Kontokali",
    "star_rating": "3",
    "review_score": "",
    "number_of_reviews": "",
    "phone_number": "00302118503006",
    "latitude": "39.64505139610231",
    "longitude": "19.856731295585632",
    "detail_url": "https://www.greeka.com/ionian/corfu/hotels/location-kontokali/telesilla/"
  },
  {
    "name": "Sun Sea Side Apartments in Benitses, Corfu",
    "official_website": "",
    "address": "Corfu, Benitses",
    "star_rating": "",
    "review_score": "",
    "number_of_reviews": "",
    "phone_number": "00302118503006",
    "latitude": "39.54488",
    "longitude": "19.912183",
    "detail_url": "https://www.greeka.com/ionian/corfu/hotels/location-benitses/sun-seaside/"
  },
  {
    "name": "Villa Panorea Villas in Moraitika, Corfu",
    "official_website": "",
    "address": "Corfu, Moraitika",
    "star_rating": "",
    "review_score": "",
    "number_of_reviews": "",
    "phone_number": "00302118503006",
    "latitude": "39.483009465243605",
    "longitude": "19.927942603826523",
    "detail_url": "https://www.greeka.com/ionian/corfu/hotels/location-moraitika/villa-panorea/"
  },
  {
    "name": "Sebastian's Family Apartments in Agios Gordios, Corfu",
    "official_website": "",
    "address": "Corfu, Agios Gordios",
    "star_rating": "",
    "review_score": "",
    "number_of_reviews": "",
    "phone_number": "00302118503006",
    "latitude": "39.54653446491543",
    "longitude": "19.852175563573837",
    "detail_url": "https://www.greeka.com/ionian/corfu/hotels/location-agios-gordios/sebastians-family/"
  },
  {
    "name": "Roza Studios in Benitses, Corfu",
    "official_website": "",
    "address": "Corfu, Benitses",
    "star_rating": "",
    "review_score": "",
    "number_of_reviews": "",
    "phone_number": "00302118503006",
    "latitude": "39.546078512850954",
    "longitude": "19.910796582698822",
    "detail_url": "https://www.greeka.com/ionian/corfu/hotels/location-benitses/roza/"
  },
  {
    "name": "Saint Spiridon Rooms in Kasiopi, Corfu",
    "official_website": "",
    "address": "Corfu, Kasiopi",
    "star_rating": "",
    "review_score": "",
    "number_of_reviews": "",
    "phone_number": "00302118503006",
    "latitude": "39.78308797550717",
    "longitude": "19.924418181180954",
    "detail_url": "https://www.greeka.com/ionian/corfu/hotels/location-kasiopi/saint-spiridon/"
  },
  {
    "name": "San Marina Hotel in Kavos, Corfu",
    "official_website": "",
    "address": "Corfu, Kavos",
    "star_rating": "3",
    "review_score": "",
    "number_of_reviews": "",
    "phone_number": "00302118503006",
    "latitude": "39.385728",
    "longitude": "20.114765",
    "detail_url": "https://www.greeka.com/ionian/corfu/hotels/location-kavos/san-marina/"
  },
  {
    "name": "Villa Kerkyra Villas in Gouvia, Corfu",
    "official_website": "",
    "address": "Corfu, Gouvia",
    "star_rating": "",
    "review_score": "",
    "number_of_reviews": "",
    "phone_number": "00302118503006",
    "latitude": "39.649400",
    "longitude": "19.818320",
    "detail_url": "https://www.greeka.com/ionian/corfu/hotels/location-gouvia/villa-kerkyra/"
  },
  {
    "name": "Semeli Hotel in Roda, Corfu",
    "official_website": "",
    "address": "Corfu, Roda",
    "star_rating": "2",
    "review_score": "",
    "number_of_reviews": "",
    "phone_number": "00302118503006",
    "latitude": "39.78817329235979",
    "longitude": "19.79604296386242",
    "detail_url": "https://www.greeka.com/ionian/corfu/hotels/location-roda/semeli/"
  },
  {
    "name": "Sugar And Almond Apartments in Agios Stefanos, Corfu",
    "official_website": "",
    "address": "Corfu, Agios Stefanos",
    "star_rating": "",
    "review_score": "",
    "number_of_reviews": "",
    "phone_number": "00302118503006",
    "latitude": "39.75328631058346",
    "longitude": "19.642930403310856",
    "detail_url": "https://www.greeka.com/ionian/corfu/hotels/location-agios-stefanos/sugar-and-almond/"
  },
  {
    "name": "Villa Vozos Villas in Afionas, Corfu",
    "official_website": "",
    "address": "Corfu, Afionas",
    "star_rating": "",
    "review_score": "",
    "number_of_reviews": "",
    "phone_number": "00302118503006",
    "latitude": "39.74411916791848",
    "longitude": "19.658976048231125",
    "detail_url": "https://www.greeka.com/ionian/corfu/hotels/location-afionas/villa-vozos/"
  },
  {
    "name": "Solea Apartments in Kommeno, Corfu",
    "official_website": "",
    "address": "Corfu, Kommeno",
    "star_rating": "",
    "review_score": "",
    "number_of_reviews": "",
    "phone_number": "00302118503006",
    "latitude": "39.66285173200878",
    "longitude": "19.84356726620103",
    "detail_url": "https://www.greeka.com/ionian/corfu/hotels/location-kommeno/solea/"
  },
  {
    "name": "Tassos Hotel in Acharavi, Corfu",
    "official_website": "",
    "address": "Corfu, Acharavi",
    "star_rating": "2",
    "review_score": "",
    "number_of_reviews": "",
    "phone_number": "00302118503006",
    "latitude": "39.794221902978876",
    "longitude": "19.81263041496277",
    "detail_url": "https://www.greeka.com/ionian/corfu/hotels/location-acharavi/tassos/"
  },
  {
    "name": "Yannis Hotel in Ipsos, Corfu",
    "official_website": "",
    "address": "Corfu, Ipsos",
    "star_rating": "3",
    "review_score": "",
    "number_of_reviews": "",
    "phone_number": "00302118503006",
    "latitude": "39.700200987256004",
    "longitude": "19.837260344065726",
    "detail_url": "https://www.greeka.com/ionian/corfu/hotels/location-ipsos/yannis/"
  },
  {
    "name": "The Wave Apartments in Sidari, Corfu",
    "official_website": "",
    "address": "Corfu, Sidari",
    "star_rating": "",
    "review_score": "",
    "number_of_reviews": "",
    "phone_number": "00302118503006",
    "latitude": "39.78970102971371",
    "longitude": "19.720153212547302",
    "detail_url": "https://www.greeka.com/ionian/corfu/hotels/location-sidari/the-wave/"
  },
  {
    "name": "Pyrros Hotel in Kontokali, Corfu",
    "official_website": "",
    "address": "Corfu, Kontokali",
    "star_rating": "2",
    "review_score": "",
    "number_of_reviews": "",
    "phone_number": "00302118503006",
    "latitude": "39.644494",
    "longitude": "19.849913",
    "detail_url": "https://www.greeka.com/ionian/corfu/hotels/location-kontokali/pyrros/"
  },
  {
    "name": "Toni's Apartments in Kavos, Corfu",
    "official_website": "",
    "address": "Corfu, Kavos",
    "star_rating": "",
    "review_score": "",
    "number_of_reviews": "",
    "phone_number": "00302118503006",
    "latitude": "39.383592",
    "longitude": "20.116434",
    "detail_url": "https://www.greeka.com/ionian/corfu/hotels/location-kavos/tonis-guesthouse/"
  },
  {
    "name": "Toulas Apartments in Sidari, Corfu",
    "official_website": "",
    "address": "Corfu, Sidari",
    "star_rating": "",
    "review_score": "",
    "number_of_reviews": "",
    "phone_number": "00302118503006",
    "latitude": "39.79457657782276",
    "longitude": "19.70037192106247",
    "detail_url": "https://www.greeka.com/ionian/corfu/hotels/location-sidari/toulas/"
  },
  {
    "name": "Victoria Hill Hotel in Dassia, Corfu",
    "official_website": "",
    "address": "Corfu, Dassia",
    "star_rating": "3",
    "review_score": "",
    "number_of_reviews": "",
    "phone_number": "00302118503006",
    "latitude": "39.685192694107535",
    "longitude": "19.836531579330767",
    "detail_url": "https://www.greeka.com/ionian/corfu/hotels/location-dassia/victoria-hill/"
  }
]